{"businesses": [{"id": "belle-reve-new-york", "name": "Belle Reve", "image_url": "https://s3-media2.fl.yelpcdn.com/bphoto/CaBTd0vxSH0XFNdGL-y0SQ/o.jpg", "is_closed": false, "url": "https://www.yelp.com/biz/belle-reve-new-york?adjust_creative=pY8zJUWQtPjP9LVSrcR4eg&utm_campaign=yelp_api_v3&utm_medium=api_v3_business_search&utm_source=pY8zJUWQtPjP9LVSrcR4eg", "review_count": 107, "categories": [{"alias": "bars", "title": "Bars"}, {"alias": "newamerican", "title": "American (New)"}, {"alias": "musicvenues", "title": "Music Venues"}], "rating": 4.0, "coordinates": {"latitude": 40.71951, "longitude": -74.00413}, "transactions": ["pickup", "restaurant_reservation", "delivery"], "price": "$$", "location": {"address1": "305 Church St", "address2": "", "address3": "", "city": "New York", "zip_code": "10013", "country": "US", "state": "NY", "display_address": ["305 Church St", "New York, NY 10013"]}, "phone": "+12126800101", "display_phone": "(212) 680-0101", "distance": 1770.4129700495478}, {"id": "otb-brooklyn", "name": "OTB", "image_url": "https://s3-media3.fl.yelpcdn.com/bphoto/dOwykLahMPtinTlZyiHWfQ/o.jpg", "is_closed": false, "url": "https://www.yelp.com/biz/otb-brooklyn?adjust_creative=pY8zJUWQtPjP9LVSrcR4eg&utm_campaign=yelp_api_v3&utm_medium=api_v3_business_search&utm_source=pY8zJUWQtPjP9LVSrcR4eg", "review_count": 97, "categories": [{"alias": "newamerican", "title": "American (New)"}, {"alias": "bars", "title": "Bars"}], "rating": 4.5, "coordinates": {"latitude": 40.710506439209, "longitude": -73.9633941650391}, "transactions": [], "price": "$$", "location": {"address1": "141 Broadway", "address2": "", "address3": "Williamsburg", "city": "Brooklyn", "zip_code": "11211", "country": "US", "state": "NY", "display_address": ["141 Broadway", "Williamsburg", "Brooklyn, NY 11211"]}, "phone": "+13477631481", "display_phone": "(347) 763-1481", "distance": 2664.6140919007357}, {"id": "cask-bar-and-kitchen-new-york", "name": "Cask Bar & Kitchen", "image_url": "https://s3-media4.fl.yelpcdn.com/bphoto/wvwEilTdFwFBSxJHd5C8lA/o.jpg", "is_closed": false, "url": "https://www.yelp.com/biz/cask-bar-and-kitchen-new-york?adjust_creative=pY8zJUWQtPjP9LVSrcR4eg&utm_campaign=yelp_api_v3&utm_medium=api_v3_business_search&utm_source=pY8zJUWQtPjP9LVSrcR4eg", "review_count": 1191, "categories": [{"alias": "bars", "title": "Bars"}, {"alias": "newamerican", "title": "American (New)"}, {"alias": "breakfast_brunch", "title": "Breakfast & Brunch"}], "rating": 4.0, "coordinates": {"latitude": 40.745414, "longitude": -73.979004}, "transactions": ["delivery", "pickup"], "price": "$$", "location": {"address1": "167 E 33rd St", "address2": "", "address3": "", "city": "New York", "zip_code": "10016", "country": "US", "state": "NY", "display_address": ["167 E 33rd St", "New York, NY 10016"]}, "phone": "+12123004924", "display_phone": "(212) 300-4924", "distance": 4627.343247633448}, {"id": "clancey-new-york", "name": "Clancey", "image_url": "https://s3-media1.fl.yelpcdn.com/bphoto/pX5_kB6loBoyIQ6ACGBEuw/o.jpg", "is_closed": false, "url": "https://www.yelp.com/biz/clancey-new-york?adjust_creative=pY8zJUWQtPjP9LVSrcR4eg&utm_campaign=yelp_api_v3&utm_medium=api_v3_business_search&utm_source=pY8zJUWQtPjP9LVSrcR4eg", "review_count": 84, "categories": [{"alias": "newamerican", "title": "American (New)"}, {"alias": "beerbar", "title": "Beer Bar"}, {"alias": "breakfast_brunch", "title": "Breakfast & Brunch"}], "rating": 4.5, "coordinates": {"latitude": 40.7190299, "longitude": -73.98521}, "transactions": ["delivery", "pickup"], "price": "$$", "location": {"address1": "79 Clinton St", "address2": "", "address3": null, "city": "New York", "zip_code": "10002", "country": "US", "state": "NY", "display_address": ["79 Clinton St", "New York, NY 10002"]}, "phone": "+19173883575", "display_phone": "(917) 388-3575", "distance": 1680.867383611374}, {"id": "the-ox-tavern-brooklyn", "name": "The OX Tavern", "image_url": "https://s3-media4.fl.yelpcdn.com/bphoto/QeCAj05r53iKineQnnoprQ/o.jpg", "is_closed": false, "url": "https://www.yelp.com/biz/the-ox-tavern-brooklyn?adjust_creative=pY8zJUWQtPjP9LVSrcR4eg&utm_campaign=yelp_api_v3&utm_medium=api_v3_business_search&utm_source=pY8zJUWQtPjP9LVSrcR4eg", "review_count": 449, "categories": [{"alias": "newamerican", "title": "American (New)"}, {"alias": "pubs", "title": "Pubs"}, {"alias": "gastropubs", "title": "Gastropubs"}], "rating": 4.0, "coordinates": {"latitude": 40.63489, "longitude": -73.9649699}, "transactions": ["delivery", "pickup"], "price": "$$", "location": {"address1": "1301 Newkirk Ave", "address2": "", "address3": "", "city": "Brooklyn", "zip_code": "11230", "country": "US", "state": "NY", "display_address": ["1301 Newkirk Ave", "Brooklyn, NY 11230"]}, "phone": "+17182840005", "display_phone": "(718) 284-0005", "distance": 8226.782364094875}, {"id": "sugar-momma-new-york-3", "name": "Sugar Momma", "image_url": "https://s3-media2.fl.yelpcdn.com/bphoto/qwNoq8j876GhrU8ZKXLScA/o.jpg", "is_closed": false, "url": "https://www.yelp.com/biz/sugar-momma-new-york-3?adjust_creative=pY8zJUWQtPjP9LVSrcR4eg&utm_campaign=yelp_api_v3&utm_medium=api_v3_business_search&utm_source=pY8zJUWQtPjP9LVSrcR4eg", "review_count": 9, "categories": [{"alias": "newamerican", "title": "American (New)"}, {"alias": "cocktailbars", "title": "Cocktail Bars"}, {"alias": "tapasmallplates", "title": "Tapas/Small Plates"}], "rating": 5.0, "coordinates": {"latitude": 40.70837, "longitude": -74.00563}, "transactions": [], "location": {"address1": "15 Cliff St", "address2": "", "address3": null, "city": "New York", "zip_code": "10038", "country": "US", "state": "NY", "display_address": ["15 Cliff St", "New York, NY 10038"]}, "phone": "+12126029991", "display_phone": "(212) 602-9991", "distance": 1009.254369577264}, {"id": "offside-tavern-new-york", "name": "Offside Tavern", "image_url": "https://s3-media2.fl.yelpcdn.com/bphoto/vmU8RFWui7RaFSgKj10quw/o.jpg", "is_closed": false, "url": "https://www.yelp.com/biz/offside-tavern-new-york?adjust_creative=pY8zJUWQtPjP9LVSrcR4eg&utm_campaign=yelp_api_v3&utm_medium=api_v3_business_search&utm_source=pY8zJUWQtPjP9LVSrcR4eg", "review_count": 43, "categories": [{"alias": "sportsbars", "title": "Sports Bars"}, {"alias": "tradamerican", "title": "American (Traditional)"}, {"alias": "venues", "title": "Venues & Event Spaces"}], "rating": 4.5, "coordinates": {"latitude": 40.73832, "longitude": -73.99836}, "transactions": [], "price": "$", "location": {"address1": "137 W 14th St", "address2": "", "address3": null, "city": "New York", "zip_code": "10011", "country": "US", "state": "NY", "display_address": ["137 W 14th St", "New York, NY 10011"]}, "phone": "+19173883956", "display_phone": "(917) 388-3956", "distance": 3669.5073950195474}, {"id": "blvd-diner-queens-2", "name": "Blvd Diner", "image_url": "https://s3-media2.fl.yelpcdn.com/bphoto/FpL4hYtSuIvm3DOEHb3n3w/o.jpg", "is_closed": false, "url": "https://www.yelp.com/biz/blvd-diner-queens-2?adjust_creative=pY8zJUWQtPjP9LVSrcR4eg&utm_campaign=yelp_api_v3&utm_medium=api_v3_business_search&utm_source=pY8zJUWQtPjP9LVSrcR4eg", "review_count": 7, "categories": [{"alias": "diners", "title": "Diners"}, {"alias": "tradamerican", "title": "American (Traditional)"}], "rating": 4.5, "coordinates": {"latitude": 40.74382, "longitude": -73.92086}, "transactions": ["delivery", "pickup"], "location": {"address1": "43-11 Queens Blvd", "address2": "", "address3": null, "city": "Queens", "zip_code": "11104", "country": "US", "state": "NY", "display_address": ["43-11 Queens Blvd", "Queens, NY 11104"]}, "phone": "+17188061499", "display_phone": "(718) 806-1499", "distance": 7511.2117167612}, {"id": "walters-brooklyn", "name": "Walter's", "image_url": "https://s3-media1.fl.yelpcdn.com/bphoto/QU2i56-sKKaZclcLVAea8g/o.jpg", "is_closed": false, "url": "https://www.yelp.com/biz/walters-brooklyn?adjust_creative=pY8zJUWQtPjP9LVSrcR4eg&utm_campaign=yelp_api_v3&utm_medium=api_v3_business_search&utm_source=pY8zJUWQtPjP9LVSrcR4eg", "review_count": 444, "categories": [{"alias": "newamerican", "title": "American (New)"}, {"alias": "cocktailbars", "title": "Cocktail Bars"}], "rating": 4.0, "coordinates": {"latitude": 40.6894111633301, "longitude": -73.973258972168}, "transactions": [], "price": "$$", "location": {"address1": "166 DeKalb Ave", "address2": "", "address3": "", "city": "Brooklyn", "zip_code": "11217", "country": "US", "state": "NY", "display_address": ["166 DeKalb Ave", "Brooklyn, NY 11217"]}, "phone": "+17184887800", "display_phone": "(718) 488-7800", "distance": 2516.330596559794}, {"id": "rose-and-basil-new-york", "name": "Rose and Basil", "image_url": "https://s3-media3.fl.yelpcdn.com/bphoto/_Ye4SBkx22agpvyUndxSIg/o.jpg", "is_closed": false, "url": "https://www.yelp.com/biz/rose-and-basil-new-york?adjust_creative=pY8zJUWQtPjP9LVSrcR4eg&utm_campaign=yelp_api_v3&utm_medium=api_v3_business_search&utm_source=pY8zJUWQtPjP9LVSrcR4eg", "review_count": 198, "categories": [{"alias": "breakfast_brunch", "title": "Breakfast & Brunch"}, {"alias": "desserts", "title": "Desserts"}, {"alias": "newamerican", "title": "American (New)"}], "rating": 4.0, "coordinates": {"latitude": 40.7265658172408, "longitude": -73.9851362389845}, "transactions": ["delivery", "pickup"], "price": "$$", "location": {"address1": "104 E 7th St", "address2": null, "address3": "", "city": "New York", "zip_code": "10009", "country": "US", "state": "NY", "display_address": ["104 E 7th St", "New York, NY 10009"]}, "phone": "+19176340016", "display_phone": "(917) 634-0016", "distance": 2472.092940353304}, {"id": "evening-bar-new-york", "name": "Evening Bar", "image_url": "https://s3-media1.fl.yelpcdn.com/bphoto/J36Dw2Vt3FptzEE2JsYdPQ/o.jpg", "is_closed": false, "url": "https://www.yelp.com/biz/evening-bar-new-york?adjust_creative=pY8zJUWQtPjP9LVSrcR4eg&utm_campaign=yelp_api_v3&utm_medium=api_v3_business_search&utm_source=pY8zJUWQtPjP9LVSrcR4eg", "review_count": 15, "categories": [{"alias": "wine_bars", "title": "Wine Bars"}, {"alias": "cocktailbars", "title": "Cocktail Bars"}, {"alias": "tradamerican", "title": "American (Traditional)"}], "rating": 4.5, "coordinates": {"latitude": 40.71521, "longitude": -74.00913}, "transactions": [], "price": "$$$", "location": {"address1": "85 W Broadway", "address2": "", "address3": "", "city": "New York", "zip_code": "10007", "country": "US", "state": "NY", "display_address": ["85 W Broadway", "New York, NY 10007"]}, "phone": "+12125877000", "display_phone": "(212) 587-7000", "distance": 1656.165877905226}, {"id": "bushwich-sandwich-lab-brooklyn", "name": "Bushwich Sandwich Lab", "image_url": "https://s3-media3.fl.yelpcdn.com/bphoto/E2dolTbOwYUVV0OSQD-F8w/o.jpg", "is_closed": false, "url": "https://www.yelp.com/biz/bushwich-sandwich-lab-brooklyn?adjust_creative=pY8zJUWQtPjP9LVSrcR4eg&utm_campaign=yelp_api_v3&utm_medium=api_v3_business_search&utm_source=pY8zJUWQtPjP9LVSrcR4eg", "review_count": 16, "categories": [{"alias": "sandwiches", "title": "Sandwiches"}, {"alias": "newamerican", "title": "American (New)"}], "rating": 5.0, "coordinates": {"latitude": 40.70003, "longitude": -73.92945}, "transactions": ["delivery", "pickup"], "location": {"address1": "143 Troutman St", "address2": null, "address3": "", "city": "Brooklyn", "zip_code": "11206", "country": "US", "state": "NY", "display_address": ["143 Troutman St", "Brooklyn, NY 11206"]}, "phone": "+19173863230", "display_phone": "(917) 386-3230", "distance": 5507.779781185969}, {"id": "dinerbar-rego-park", "name": "Dinerbar", "image_url": "https://s3-media4.fl.yelpcdn.com/bphoto/rFOVqjlk5BFTNifhFMOuRw/o.jpg", "is_closed": false, "url": "https://www.yelp.com/biz/dinerbar-rego-park?adjust_creative=pY8zJUWQtPjP9LVSrcR4eg&utm_campaign=yelp_api_v3&utm_medium=api_v3_business_search&utm_source=pY8zJUWQtPjP9LVSrcR4eg", "review_count": 214, "categories": [{"alias": "diners", "title": "Diners"}, {"alias": "wine_bars", "title": "Wine Bars"}, {"alias": "tradamerican", "title": "American (Traditional)"}], "rating": 4.0, "coordinates": {"latitude": 40.72958, "longitude": -73.85944}, "transactions": ["delivery", "pickup"], "price": "$$", "location": {"address1": "97-45 Queens Blvd", "address2": "", "address3": "", "city": "Rego Park", "zip_code": "11374", "country": "US", "state": "NY", "display_address": ["97-45 Queens Blvd", "Rego Park, NY 11374"]}, "phone": "+17188976000", "display_phone": "(718) 897-6000", "distance": 11674.47090149422}, {"id": "tga-nyc-new-york", "name": "TGA NYC", "image_url": "https://s3-media4.fl.yelpcdn.com/bphoto/cS_s6JVZp1gUiWq9ifDzYg/o.jpg", "is_closed": false, "url": "https://www.yelp.com/biz/tga-nyc-new-york?adjust_creative=pY8zJUWQtPjP9LVSrcR4eg&utm_campaign=yelp_api_v3&utm_medium=api_v3_business_search&utm_source=pY8zJUWQtPjP9LVSrcR4eg", "review_count": 24, "categories": [{"alias": "tradamerican", "title": "American (Traditional)"}, {"alias": "cocktailbars", "title": "Cocktail Bars"}, {"alias": "sportsbars", "title": "Sports Bars"}], "rating": 4.5, "coordinates": {"latitude": 40.75374, "longitude": -73.99374}, "transactions": [], "price": "$$", "location": {"address1": "320 W 36th St", "address2": null, "address3": null, "city": "New York", "zip_code": "10018", "country": "US", "state": "NY", "display_address": ["320 W 36th St", "New York, NY 10018"]}, "phone": "+12126514842", "display_phone": "(212) 651-4842", "distance": 5370.574577495084}, {"id": "pops-diner-flushing", "name": "Pop's Diner", "image_url": "https://s3-media1.fl.yelpcdn.com/bphoto/2QLO2qEODvnTAAYlL0mJTg/o.jpg", "is_closed": false, "url": "https://www.yelp.com/biz/pops-diner-flushing?adjust_creative=pY8zJUWQtPjP9LVSrcR4eg&utm_campaign=yelp_api_v3&utm_medium=api_v3_business_search&utm_source=pY8zJUWQtPjP9LVSrcR4eg", "review_count": 232, "categories": [{"alias": "diners", "title": "Diners"}, {"alias": "breakfast_brunch", "title": "Breakfast & Brunch"}, {"alias": "tradamerican", "title": "American (Traditional)"}], "rating": 4.0, "coordinates": {"latitude": 40.7531739751242, "longitude": -73.8216662406921}, "transactions": [], "price": "$", "location": {"address1": "44-29 Kissena Blvd", "address2": "", "address3": "", "city": "Flushing", "zip_code": "11355", "country": "US", "state": "NY", "display_address": ["44-29 Kissena Blvd", "Flushing, NY 11355"]}, "phone": "+17184637719", "display_phone": "(718) 463-7719", "distance": 15484.092228723615}, {"id": "maite-brooklyn", "name": "Maite", "image_url": "https://s3-media1.fl.yelpcdn.com/bphoto/oQGHgOcCLPAuHVpIdSapuQ/o.jpg", "is_closed": false, "url": "https://www.yelp.com/biz/maite-brooklyn?adjust_creative=pY8zJUWQtPjP9LVSrcR4eg&utm_campaign=yelp_api_v3&utm_medium=api_v3_business_search&utm_source=pY8zJUWQtPjP9LVSrcR4eg", "review_count": 143, "categories": [{"alias": "bars", "title": "Bars"}, {"alias": "newamerican", "title": "American (New)"}, {"alias": "spanish", "title": "Spanish"}], "rating": 4.5, "coordinates": {"latitude": 40.69924, "longitude": -73.926797}, "transactions": [], "price": "$$", "location": {"address1": "159 Central Ave", "address2": "", "address3": "", "city": "Brooklyn", "zip_code": "11221", "country": "US", "state": "NY", "display_address": ["159 Central Ave", "Brooklyn, NY 11221"]}, "phone": "+17183663090", "display_phone": "(718) 366-3090", "distance": 5731.45025432153}, {"id": "davids-cafe-new-york", "name": "David's Cafe", "image_url": "https://s3-media2.fl.yelpcdn.com/bphoto/N9EdQsPyBADfJBoHaXFtlg/o.jpg", "is_closed": false, "url": "https://www.yelp.com/biz/davids-cafe-new-york?adjust_creative=pY8zJUWQtPjP9LVSrcR4eg&utm_campaign=yelp_api_v3&utm_medium=api_v3_business_search&utm_source=pY8zJUWQtPjP9LVSrcR4eg", "review_count": 138, "categories": [{"alias": "newamerican", "title": "American (New)"}, {"alias": "french", "title": "French"}, {"alias": "cafes", "title": "Cafes"}], "rating": 4.0, "coordinates": {"latitude": 40.7269310030458, "longitude": -73.9843428879976}, "transactions": ["delivery", "pickup"], "price": "$$", "location": {"address1": "110 St Marks Pl", "address2": "", "address3": "", "city": "New York", "zip_code": "10009", "country": "US", "state": "NY", "display_address": ["110 St Marks Pl", "New York, NY 10009"]}, "phone": "+16466783206", "display_phone": "(646) 678-3206", "distance": 2532.0539814522117}, {"id": "delaware-and-hudson-brooklyn", "name": "Delaware and Hudson", "image_url": "https://s3-media2.fl.yelpcdn.com/bphoto/2XwF1xpC00ZI2R0ZsTyIdA/o.jpg", "is_closed": false, "url": "https://www.yelp.com/biz/delaware-and-hudson-brooklyn?adjust_creative=pY8zJUWQtPjP9LVSrcR4eg&utm_campaign=yelp_api_v3&utm_medium=api_v3_business_search&utm_source=pY8zJUWQtPjP9LVSrcR4eg", "review_count": 238, "categories": [{"alias": "tradamerican", "title": "American (Traditional)"}, {"alias": "pretzels", "title": "Pretzels"}, {"alias": "breakfast_brunch", "title": "Breakfast & Brunch"}], "rating": 4.0, "coordinates": {"latitude": 40.7169867729439, "longitude": -73.9592314309387}, "transactions": ["restaurant_reservation"], "price": "$$", "location": {"address1": "135 N 5th St", "address2": null, "address3": "", "city": "Brooklyn", "zip_code": "11211", "country": "US", "state": "NY", "display_address": ["135 N 5th St", "Brooklyn, NY 11211"]}, "phone": "+17182188191", "display_phone": "(718) 218-8191", "distance": 3221.8797382291336}, {"id": "chop-chop-grub-shop-astoria", "name": "Chop Chop Grub Shop", "image_url": "https://s3-media3.fl.yelpcdn.com/bphoto/pq8IcXt_9jshSLmPoWwSYg/o.jpg", "is_closed": false, "url": "https://www.yelp.com/biz/chop-chop-grub-shop-astoria?adjust_creative=pY8zJUWQtPjP9LVSrcR4eg&utm_campaign=yelp_api_v3&utm_medium=api_v3_business_search&utm_source=pY8zJUWQtPjP9LVSrcR4eg", "review_count": 61, "categories": [{"alias": "newamerican", "title": "American (New)"}], "rating": 4.5, "coordinates": {"latitude": 40.77484, "longitude": -73.90841}, "transactions": ["delivery", "pickup"], "price": "$$", "location": {"address1": "3507 Ditmars Blvd", "address2": null, "address3": "", "city": "Astoria", "zip_code": "11105", "country": "US", "state": "NY", "display_address": ["3507 Ditmars Blvd", "Astoria, NY 11105"]}, "phone": "+17187770191", "display_phone": "(718) 777-0191", "distance": 10552.913036632886}, {"id": "energy-fuel-healthy-grill-brooklyn-5", "name": "Energy Fuel Healthy Grill", "image_url": "https://s3-media2.fl.yelpcdn.com/bphoto/2QaB98GkzYjRa2Sf2is1RQ/o.jpg", "is_closed": false, "url": "https://www.yelp.com/biz/energy-fuel-healthy-grill-brooklyn-5?adjust_creative=pY8zJUWQtPjP9LVSrcR4eg&utm_campaign=yelp_api_v3&utm_medium=api_v3_business_search&utm_source=pY8zJUWQtPjP9LVSrcR4eg", "review_count": 4, "categories": [{"alias": "juicebars", "title": "Juice Bars & Smoothies"}, {"alias": "breakfast_brunch", "title": "Breakfast & Brunch"}, {"alias": "newamerican", "title": "American (New)"}], "rating": 4.5, "coordinates": {"latitude": 40.67091, "longitude": -73.94192}, "transactions": ["delivery", "pickup"], "location": {"address1": "257 Kingston Ave", "address2": "", "address3": null, "city": "Brooklyn", "zip_code": "11213", "country": "US", "state": "NY", "display_address": ["257 Kingston Ave", "Brooklyn, NY 11213"]}, "phone": "+17182211979", "display_phone": "(718) 221-1979", "distance": 5843.045664467566}, {"id": "gottscheer-hall-ridgewood", "name": "Gottscheer Hall", "image_url": "https://s3-media1.fl.yelpcdn.com/bphoto/jZZhgRYFUXbt8BJsMCZTSQ/o.jpg", "is_closed": false, "url": "https://www.yelp.com/biz/gottscheer-hall-ridgewood?adjust_creative=pY8zJUWQtPjP9LVSrcR4eg&utm_campaign=yelp_api_v3&utm_medium=api_v3_business_search&utm_source=pY8zJUWQtPjP9LVSrcR4eg", "review_count": 40, "categories": [{"alias": "german", "title": "German"}, {"alias": "bars", "title": "Bars"}], "rating": 4.5, "coordinates": {"latitude": 40.7067401, "longitude": -73.9056181}, "transactions": [], "price": "$", "location": {"address1": "657 Fairview Ave", "address2": "", "address3": "", "city": "Ridgewood", "zip_code": "11385", "country": "US", "state": "NY", "display_address": ["657 Fairview Ave", "Ridgewood, NY 11385"]}, "phone": "+17183663030", "display_phone": "(718) 366-3030", "distance": 7471.7769433076455}, {"id": "sugarburg-brooklyn", "name": "Sugarburg", "image_url": "https://s3-media2.fl.yelpcdn.com/bphoto/c971aXTMDOz38jN_IuLZOQ/o.jpg", "is_closed": false, "url": "https://www.yelp.com/biz/sugarburg-brooklyn?adjust_creative=pY8zJUWQtPjP9LVSrcR4eg&utm_campaign=yelp_api_v3&utm_medium=api_v3_business_search&utm_source=pY8zJUWQtPjP9LVSrcR4eg", "review_count": 243, "categories": [{"alias": "pubs", "title": "Pubs"}, {"alias": "coffee", "title": "Coffee & Tea"}, {"alias": "tradamerican", "title": "American (Traditional)"}], "rating": 4.5, "coordinates": {"latitude": 40.7141182158499, "longitude": -73.9516061916947}, "transactions": [], "price": "$$", "location": {"address1": "519 Metropolitan Ave", "address2": "", "address3": "", "city": "Brooklyn", "zip_code": "11211", "country": "US", "state": "NY", "display_address": ["519 Metropolitan Ave", "Brooklyn, NY 11211"]}, "phone": "+19176183029", "display_phone": "(917) 618-3029", "distance": 3725.026878037102}, {"id": "the-odeon-new-york", "name": "The Odeon", "image_url": "https://s3-media2.fl.yelpcdn.com/bphoto/6EnDYRpoU5-EoQhrY8f44g/o.jpg", "is_closed": false, "url": "https://www.yelp.com/biz/the-odeon-new-york?adjust_creative=pY8zJUWQtPjP9LVSrcR4eg&utm_campaign=yelp_api_v3&utm_medium=api_v3_business_search&utm_source=pY8zJUWQtPjP9LVSrcR4eg", "review_count": 542, "categories": [{"alias": "newamerican", "title": "American (New)"}, {"alias": "french", "title": "French"}, {"alias": "italian", "title": "Italian"}], "rating": 4.0, "coordinates": {"latitude": 40.71692, "longitude": -74.00792}, "transactions": ["delivery", "pickup"], "price": "$$$", "location": {"address1": "145 W Broadway", "address2": "", "address3": "", "city": "New York", "zip_code": "10013", "country": "US", "state": "NY", "display_address": ["145 W Broadway", "New York, NY 10013"]}, "phone": "+12122330507", "display_phone": "(212) 233-0507", "distance": 1709.272870622542}, {"id": "purbird-brooklyn", "name": "Purbird", "image_url": "https://s3-media2.fl.yelpcdn.com/bphoto/woDMEFfHX0Ty20layZ0uDQ/o.jpg", "is_closed": false, "url": "https://www.yelp.com/biz/purbird-brooklyn?adjust_creative=pY8zJUWQtPjP9LVSrcR4eg&utm_campaign=yelp_api_v3&utm_medium=api_v3_business_search&utm_source=pY8zJUWQtPjP9LVSrcR4eg", "review_count": 417, "categories": [{"alias": "newamerican", "title": "American (New)"}, {"alias": "chickenshop", "title": "Chicken Shop"}], "rating": 4.0, "coordinates": {"latitude": 40.67985, "longitude": -73.97518}, "transactions": ["delivery", "pickup"], "price": "$$", "location": {"address1": "82 Sixth Ave", "address2": "", "address3": "", "city": "Brooklyn", "zip_code": "11217", "country": "US", "state": "NY", "display_address": ["82 Sixth Ave", "Brooklyn, NY 11217"]}, "phone": "+17188572473", "display_phone": "(718) 857-2473", "distance": 3268.652047964988}, {"id": "villanelle-new-york", "name": "Villanelle", "image_url": "https://s3-media1.fl.yelpcdn.com/bphoto/_F1PuQ3w96j1Ts37TfeyAA/o.jpg", "is_closed": false, "url": "https://www.yelp.com/biz/villanelle-new-york?adjust_creative=pY8zJUWQtPjP9LVSrcR4eg&utm_campaign=yelp_api_v3&utm_medium=api_v3_business_search&utm_source=pY8zJUWQtPjP9LVSrcR4eg", "review_count": 36, "categories": [{"alias": "newamerican", "title": "American (New)"}, {"alias": "desserts", "title": "Desserts"}, {"alias": "cocktailbars", "title": "Cocktail Bars"}], "rating": 4.5, "coordinates": {"latitude": 40.73441, "longitude": -73.99329}, "transactions": ["restaurant_reservation"], "price": "$$$", "location": {"address1": "15 E 12th St", "address2": "", "address3": null, "city": "New York", "zip_code": "10003", "country": "US", "state": "NY", "display_address": ["15 E 12th St", "New York, NY 10003"]}, "phone": "+12129892474", "display_phone": "(212) 989-2474", "distance": 3223.9567286149017}, {"id": "anella-brooklyn", "name": "Anella", "image_url": "https://s3-media3.fl.yelpcdn.com/bphoto/wtCx7mZt-ajOQOupF9GvjA/o.jpg", "is_closed": false, "url": "https://www.yelp.com/biz/anella-brooklyn?adjust_creative=pY8zJUWQtPjP9LVSrcR4eg&utm_campaign=yelp_api_v3&utm_medium=api_v3_business_search&utm_source=pY8zJUWQtPjP9LVSrcR4eg", "review_count": 357, "categories": [{"alias": "newamerican", "title": "American (New)"}], "rating": 4.0, "coordinates": {"latitude": 40.73327, "longitude": -73.95786}, "transactions": ["delivery", "pickup"], "price": "$$", "location": {"address1": "222 Franklin St", "address2": "", "address3": "", "city": "Brooklyn", "zip_code": "11222", "country": "US", "state": "NY", "display_address": ["222 Franklin St", "Brooklyn, NY 11222"]}, "phone": "+17183898100", "display_phone": "(718) 389-8100", "distance": 4356.748445700963}, {"id": "juniper-new-york", "name": "Juniper", "image_url": "https://s3-media2.fl.yelpcdn.com/bphoto/1d-sbUuYrc1NyewY8jfcmA/o.jpg", "is_closed": false, "url": "https://www.yelp.com/biz/juniper-new-york?adjust_creative=pY8zJUWQtPjP9LVSrcR4eg&utm_campaign=yelp_api_v3&utm_medium=api_v3_business_search&utm_source=pY8zJUWQtPjP9LVSrcR4eg", "review_count": 352, "categories": [{"alias": "cocktailbars", "title": "Cocktail Bars"}, {"alias": "newamerican", "title": "American (New)"}], "rating": 4.0, "coordinates": {"latitude": 40.752472, "longitude": -73.991463}, "transactions": ["restaurant_reservation"], "price": "$$", "location": {"address1": "237 W 35th St", "address2": null, "address3": "", "city": "New York", "zip_code": "10001", "country": "US", "state": "NY", "display_address": ["237 W 35th St", "New York, NY 10001"]}, "phone": "+12129672511", "display_phone": "(212) 967-2511", "distance": 5237.739387227446}, {"id": "the-sparrow-tavern-astoria", "name": "The Sparrow Tavern", "image_url": "https://s3-media1.fl.yelpcdn.com/bphoto/SGfjh3ju5J53lGXcKblQcQ/o.jpg", "is_closed": false, "url": "https://www.yelp.com/biz/the-sparrow-tavern-astoria?adjust_creative=pY8zJUWQtPjP9LVSrcR4eg&utm_campaign=yelp_api_v3&utm_medium=api_v3_business_search&utm_source=pY8zJUWQtPjP9LVSrcR4eg", "review_count": 520, "categories": [{"alias": "bars", "title": "Bars"}, {"alias": "breakfast_brunch", "title": "Breakfast & Brunch"}, {"alias": "newamerican", "title": "American (New)"}], "rating": 4.0, "coordinates": {"latitude": 40.772731, "longitude": -73.916496}, "transactions": [], "price": "$$", "location": {"address1": "24-01 29th St", "address2": "", "address3": "", "city": "Astoria", "zip_code": "11102", "country": "US", "state": "NY", "display_address": ["24-01 29th St", "Astoria, NY 11102"]}, "phone": "+17186062260", "display_phone": "(718) 606-2260", "distance": 9955.01428313579}, {"id": "sunshine-brooklyn-3", "name": "Sunshine", "image_url": "https://s3-media3.fl.yelpcdn.com/bphoto/Ks9cDvTgjkiSMx-6Nboo8g/o.jpg", "is_closed": false, "url": "https://www.yelp.com/biz/sunshine-brooklyn-3?adjust_creative=pY8zJUWQtPjP9LVSrcR4eg&utm_campaign=yelp_api_v3&utm_medium=api_v3_business_search&utm_source=pY8zJUWQtPjP9LVSrcR4eg", "review_count": 274, "categories": [{"alias": "newamerican", "title": "American (New)"}, {"alias": "bars", "title": "Bars"}, {"alias": "tapasmallplates", "title": "Tapas/Small Plates"}], "rating": 4.0, "coordinates": {"latitude": 40.6746035, "longitude": -73.9631644}, "transactions": [], "price": "$$", "location": {"address1": "780 Washington Ave", "address2": "", "address3": "", "city": "Brooklyn", "zip_code": "11238", "country": "US", "state": "NY", "display_address": ["780 Washington Ave", "Brooklyn, NY 11238"]}, "phone": "+13477505275", "display_phone": "(347) 750-5275", "distance": 4318.466204628958}, {"id": "smithfield-hall-new-york-5", "name": "Smithfield Hall", "image_url": "https://s3-media2.fl.yelpcdn.com/bphoto/1z_czyshgtkkp6hF4KvIyg/o.jpg", "is_closed": false, "url": "https://www.yelp.com/biz/smithfield-hall-new-york-5?adjust_creative=pY8zJUWQtPjP9LVSrcR4eg&utm_campaign=yelp_api_v3&utm_medium=api_v3_business_search&utm_source=pY8zJUWQtPjP9LVSrcR4eg", "review_count": 404, "categories": [{"alias": "pubs", "title": "Pubs"}, {"alias": "tradamerican", "title": "American (Traditional)"}, {"alias": "sportsbars", "title": "Sports Bars"}], "rating": 4.0, "coordinates": {"latitude": 40.7447532620452, "longitude": -73.9934939850447}, "transactions": [], "price": "$$", "location": {"address1": "138 W 25th St", "address2": "", "address3": "", "city": "New York", "zip_code": "10001", "country": "US", "state": "NY", "display_address": ["138 W 25th St", "New York, NY 10001"]}, "phone": "+12129299677", "display_phone": "(212) 929-9677", "distance": 4371.408398838132}, {"id": "49-monroe-new-york-4", "name": "49 Monroe", "image_url": "https://s3-media2.fl.yelpcdn.com/bphoto/6bWLF7IEi1TJd0yIaDW0Fw/o.jpg", "is_closed": false, "url": "https://www.yelp.com/biz/49-monroe-new-york-4?adjust_creative=pY8zJUWQtPjP9LVSrcR4eg&utm_campaign=yelp_api_v3&utm_medium=api_v3_business_search&utm_source=pY8zJUWQtPjP9LVSrcR4eg", "review_count": 116, "categories": [{"alias": "bars", "title": "Bars"}, {"alias": "french", "title": "French"}, {"alias": "italian", "title": "Italian"}], "rating": 4.5, "coordinates": {"latitude": 40.7118467, "longitude": -73.9937348}, "transactions": ["delivery", "pickup"], "price": "$$", "location": {"address1": "49 Monroe St", "address2": "", "address3": null, "city": "New York", "zip_code": "10002", "country": "US", "state": "NY", "display_address": ["49 Monroe St", "New York, NY 10002"]}, "phone": "+19174727732", "display_phone": "(917) 472-7732", "distance": 713.4052586375859}, {"id": "haymaker-bar-and-kitchen-new-york", "name": "Haymaker Bar and Kitchen", "image_url": "https://s3-media1.fl.yelpcdn.com/bphoto/IxY9JHwBO7mbo_0kXyAy_Q/o.jpg", "is_closed": false, "url": "https://www.yelp.com/biz/haymaker-bar-and-kitchen-new-york?adjust_creative=pY8zJUWQtPjP9LVSrcR4eg&utm_campaign=yelp_api_v3&utm_medium=api_v3_business_search&utm_source=pY8zJUWQtPjP9LVSrcR4eg", "review_count": 224, "categories": [{"alias": "gastropubs", "title": "Gastropubs"}, {"alias": "beerbar", "title": "Beer Bar"}, {"alias": "breakfast_brunch", "title": "Breakfast & Brunch"}], "rating": 4.0, "coordinates": {"latitude": 40.7487508496393, "longitude": -73.995229748466}, "transactions": ["delivery", "pickup", "restaurant_reservation"], "price": "$$", "location": {"address1": "252 W 29th St", "address2": "", "address3": "", "city": "New York", "zip_code": "10001", "country": "US", "state": "NY", "display_address": ["252 W 29th St", "New York, NY 10001"]}, "phone": "+16464298237", "display_phone": "(646) 429-8237", "distance": 4816.047149307979}, {"id": "upper-east-caf\u00e9-new-york", "name": "Upper East Caf\u00e9", "image_url": "https://s3-media1.fl.yelpcdn.com/bphoto/4hj8bik-cnEqlf7L8O39Dw/o.jpg", "is_closed": false, "url": "https://www.yelp.com/biz/upper-east-caf%C3%A9-new-york?adjust_creative=pY8zJUWQtPjP9LVSrcR4eg&utm_campaign=yelp_api_v3&utm_medium=api_v3_business_search&utm_source=pY8zJUWQtPjP9LVSrcR4eg", "review_count": 112, "categories": [{"alias": "breakfast_brunch", "title": "Breakfast & Brunch"}, {"alias": "seafood", "title": "Seafood"}, {"alias": "tradamerican", "title": "American (Traditional)"}], "rating": 3.5, "coordinates": {"latitude": 40.7633565, "longitude": -73.9654055}, "transactions": ["delivery", "pickup"], "price": "$$", "location": {"address1": "1048 3rd Ave", "address2": null, "address3": "", "city": "New York", "zip_code": "10065", "country": "US", "state": "NY", "display_address": ["1048 3rd Ave", "New York, NY 10065"]}, "phone": "+19174751721", "display_phone": "(917) 475-1721", "distance": 6887.750679850062}, {"id": "raise-new-york-new-york", "name": "Raise New York", "image_url": "https://s3-media2.fl.yelpcdn.com/bphoto/qsGQ5Su-hbUC1rU3ymrTYQ/o.jpg", "is_closed": false, "url": "https://www.yelp.com/biz/raise-new-york-new-york?adjust_creative=pY8zJUWQtPjP9LVSrcR4eg&utm_campaign=yelp_api_v3&utm_medium=api_v3_business_search&utm_source=pY8zJUWQtPjP9LVSrcR4eg", "review_count": 39, "categories": [{"alias": "newamerican", "title": "American (New)"}, {"alias": "sportsbars", "title": "Sports Bars"}], "rating": 4.5, "coordinates": {"latitude": 40.7431, "longitude": -73.98032}, "transactions": ["delivery", "pickup"], "price": "$$", "location": {"address1": "416 3rd Ave", "address2": null, "address3": null, "city": "New York", "zip_code": "10016", "country": "US", "state": "NY", "display_address": ["416 3rd Ave", "New York, NY 10016"]}, "phone": "+12124811712", "display_phone": "(212) 481-1712", "distance": 4345.514834072564}, {"id": "olivers-astoria-astoria", "name": "Oliver's Astoria", "image_url": "https://s3-media3.fl.yelpcdn.com/bphoto/h0LtlUB09BsuIJZL7hs37Q/o.jpg", "is_closed": false, "url": "https://www.yelp.com/biz/olivers-astoria-astoria?adjust_creative=pY8zJUWQtPjP9LVSrcR4eg&utm_campaign=yelp_api_v3&utm_medium=api_v3_business_search&utm_source=pY8zJUWQtPjP9LVSrcR4eg", "review_count": 387, "categories": [{"alias": "beerbar", "title": "Beer Bar"}, {"alias": "newamerican", "title": "American (New)"}], "rating": 4.0, "coordinates": {"latitude": 40.7595239, "longitude": -73.9198044}, "transactions": ["delivery", "pickup", "restaurant_reservation"], "price": "$$", "location": {"address1": "3719 Broadway", "address2": "", "address3": "", "city": "Astoria", "zip_code": "11103", "country": "US", "state": "NY", "display_address": ["3719 Broadway", "Astoria, NY 11103"]}, "phone": "+17188061476", "display_phone": "(718) 806-1476", "distance": 8692.117539981353}, {"id": "hudson-bar-room-new-york", "name": "Hudson Bar Room", "image_url": "https://s3-media3.fl.yelpcdn.com/bphoto/uOKaU0LPyS_nmbNw3CQm2w/o.jpg", "is_closed": false, "url": "https://www.yelp.com/biz/hudson-bar-room-new-york?adjust_creative=pY8zJUWQtPjP9LVSrcR4eg&utm_campaign=yelp_api_v3&utm_medium=api_v3_business_search&utm_source=pY8zJUWQtPjP9LVSrcR4eg", "review_count": 7, "categories": [{"alias": "tradamerican", "title": "American (Traditional)"}, {"alias": "bars", "title": "Bars"}], "rating": 4.5, "coordinates": {"latitude": 40.75499, "longitude": -73.99843}, "transactions": [], "price": "$$", "location": {"address1": "444 10th Ave", "address2": "", "address3": null, "city": "New York", "zip_code": "10001", "country": "US", "state": "NY", "display_address": ["444 10th Ave", "New York, NY 10001"]}, "phone": "+18558110007", "display_phone": "(855) 811-0007", "distance": 5520.093273311892}, {"id": "harts-restaurant-brooklyn-2", "name": "Hart's Restaurant", "image_url": "https://s3-media2.fl.yelpcdn.com/bphoto/8BAxhnM-POH1hLTSPGxOVA/o.jpg", "is_closed": false, "url": "https://www.yelp.com/biz/harts-restaurant-brooklyn-2?adjust_creative=pY8zJUWQtPjP9LVSrcR4eg&utm_campaign=yelp_api_v3&utm_medium=api_v3_business_search&utm_source=pY8zJUWQtPjP9LVSrcR4eg", "review_count": 53, "categories": [{"alias": "newamerican", "title": "American (New)"}], "rating": 4.5, "coordinates": {"latitude": 40.68146, "longitude": -73.95589}, "transactions": [], "price": "$$", "location": {"address1": "506 Franklin Ave", "address2": "", "address3": null, "city": "Brooklyn", "zip_code": "11238", "country": "US", "state": "NY", "display_address": ["506 Franklin Ave", "Brooklyn, NY 11238"]}, "phone": "+17186366228", "display_phone": "(718) 636-6228", "distance": 4198.164653416664}, {"id": "union-square-burger-new-york", "name": "Union Square Burger", "image_url": "https://s3-media1.fl.yelpcdn.com/bphoto/Py-5OVzaWs4KyjleDhCS6w/o.jpg", "is_closed": false, "url": "https://www.yelp.com/biz/union-square-burger-new-york?adjust_creative=pY8zJUWQtPjP9LVSrcR4eg&utm_campaign=yelp_api_v3&utm_medium=api_v3_business_search&utm_source=pY8zJUWQtPjP9LVSrcR4eg", "review_count": 64, "categories": [{"alias": "burgers", "title": "Burgers"}], "rating": 4.0, "coordinates": {"latitude": 40.7596798012113, "longitude": -73.9882033333333}, "transactions": [], "price": "$", "location": {"address1": "729 8th Ave", "address2": "", "address3": null, "city": "New York", "zip_code": "10036", "country": "US", "state": "NY", "display_address": ["729 8th Ave", "New York, NY 10036"]}, "phone": "+19172658989", "display_phone": "(917) 265-8989", "distance": 6052.43407970685}, {"id": "la-fusta-restaurant-elmhurst-2", "name": "La Fusta Restaurant", "image_url": "https://s3-media3.fl.yelpcdn.com/bphoto/e0r5T7RmNh94BGuKvx_cDg/o.jpg", "is_closed": false, "url": "https://www.yelp.com/biz/la-fusta-restaurant-elmhurst-2?adjust_creative=pY8zJUWQtPjP9LVSrcR4eg&utm_campaign=yelp_api_v3&utm_medium=api_v3_business_search&utm_source=pY8zJUWQtPjP9LVSrcR4eg", "review_count": 224, "categories": [{"alias": "argentine", "title": "Argentine"}, {"alias": "newamerican", "title": "American (New)"}, {"alias": "seafood", "title": "Seafood"}], "rating": 4.0, "coordinates": {"latitude": 40.7447216659784, "longitude": -73.8845124095678}, "transactions": ["restaurant_reservation"], "price": "$$", "location": {"address1": "80-32 Baxter Ave", "address2": "", "address3": "", "city": "Elmhurst", "zip_code": "11373", "country": "US", "state": "NY", "display_address": ["80-32 Baxter Ave", "Elmhurst, NY 11373"]}, "phone": "+17184298222", "display_phone": "(718) 429-8222", "distance": 10232.286263604252}, {"id": "astoria-craft-astoria", "name": "Astoria Craft", "image_url": "https://s3-media1.fl.yelpcdn.com/bphoto/BBDbjvpjCBig_4mmMRXBag/o.jpg", "is_closed": false, "url": "https://www.yelp.com/biz/astoria-craft-astoria?adjust_creative=pY8zJUWQtPjP9LVSrcR4eg&utm_campaign=yelp_api_v3&utm_medium=api_v3_business_search&utm_source=pY8zJUWQtPjP9LVSrcR4eg", "review_count": 115, "categories": [{"alias": "bars", "title": "Bars"}, {"alias": "tradamerican", "title": "American (Traditional)"}, {"alias": "pizza", "title": "Pizza"}], "rating": 4.5, "coordinates": {"latitude": 40.77332, "longitude": -73.92715}, "transactions": ["delivery", "pickup"], "price": "$$", "location": {"address1": "1801 26th Rd", "address2": null, "address3": null, "city": "Astoria", "zip_code": "11102", "country": "US", "state": "NY", "display_address": ["1801 26th Rd", "Astoria, NY 11102"]}, "phone": "+17182784300", "display_phone": "(718) 278-4300", "distance": 9422.749836061415}, {"id": "traif-brooklyn", "name": "Traif", "image_url": "https://s3-media1.fl.yelpcdn.com/bphoto/vU65FogGLV9e7OkGTQsRLw/o.jpg", "is_closed": false, "url": "https://www.yelp.com/biz/traif-brooklyn?adjust_creative=pY8zJUWQtPjP9LVSrcR4eg&utm_campaign=yelp_api_v3&utm_medium=api_v3_business_search&utm_source=pY8zJUWQtPjP9LVSrcR4eg", "review_count": 1728, "categories": [{"alias": "newamerican", "title": "American (New)"}, {"alias": "tapasmallplates", "title": "Tapas/Small Plates"}], "rating": 4.5, "coordinates": {"latitude": 40.710658, "longitude": -73.958872}, "transactions": ["restaurant_reservation"], "price": "$$$", "location": {"address1": "229 S 4th St", "address2": "", "address3": "", "city": "Brooklyn", "zip_code": "11211", "country": "US", "state": "NY", "display_address": ["229 S 4th St", "Brooklyn, NY 11211"]}, "phone": "+13478449578", "display_phone": "(347) 844-9578", "distance": 3041.420337798124}, {"id": "upstairs-at-21-new-york", "name": "Upstairs at 21", "image_url": "https://s3-media1.fl.yelpcdn.com/bphoto/9lVoPIUGd9WXwqyu32pWPw/o.jpg", "is_closed": false, "url": "https://www.yelp.com/biz/upstairs-at-21-new-york?adjust_creative=pY8zJUWQtPjP9LVSrcR4eg&utm_campaign=yelp_api_v3&utm_medium=api_v3_business_search&utm_source=pY8zJUWQtPjP9LVSrcR4eg", "review_count": 8, "categories": [{"alias": "newamerican", "title": "American (New)"}], "rating": 4.5, "coordinates": {"latitude": 40.76037, "longitude": -73.97741}, "transactions": [], "price": "$$$$", "location": {"address1": "21 W 52nd St", "address2": "", "address3": "", "city": "New York", "zip_code": "10019", "country": "US", "state": "NY", "display_address": ["21 W 52nd St", "New York, NY 10019"]}, "phone": "+12125827200", "display_phone": "(212) 582-7200", "distance": 6279.217640987264}, {"id": "north-pole-pub-brooklyn", "name": "North Pole Pub", "image_url": "https://s3-media4.fl.yelpcdn.com/bphoto/KQQjf9c1qDwCTsgirfi-vQ/o.jpg", "is_closed": false, "url": "https://www.yelp.com/biz/north-pole-pub-brooklyn?adjust_creative=pY8zJUWQtPjP9LVSrcR4eg&utm_campaign=yelp_api_v3&utm_medium=api_v3_business_search&utm_source=pY8zJUWQtPjP9LVSrcR4eg", "review_count": 30, "categories": [{"alias": "pubs", "title": "Pubs"}], "rating": 4.5, "coordinates": {"latitude": 40.68154, "longitude": -73.9774}, "transactions": [], "price": "$$", "location": {"address1": "428 Bergen St", "address2": "", "address3": "", "city": "Brooklyn", "zip_code": "11217", "country": "US", "state": "NY", "display_address": ["428 Bergen St", "Brooklyn, NY 11217"]}, "phone": "+17188570049", "display_phone": "(718) 857-0049", "distance": 3020.232247102378}, {"id": "henrys-end-brooklyn-4", "name": "Henry's End", "image_url": "https://s3-media3.fl.yelpcdn.com/bphoto/EgAFoIfkhDeM_kynoND1Ow/o.jpg", "is_closed": false, "url": "https://www.yelp.com/biz/henrys-end-brooklyn-4?adjust_creative=pY8zJUWQtPjP9LVSrcR4eg&utm_campaign=yelp_api_v3&utm_medium=api_v3_business_search&utm_source=pY8zJUWQtPjP9LVSrcR4eg", "review_count": 306, "categories": [{"alias": "newamerican", "title": "American (New)"}, {"alias": "diners", "title": "Diners"}, {"alias": "wine_bars", "title": "Wine Bars"}], "rating": 4.0, "coordinates": {"latitude": 40.6997, "longitude": -73.99217}, "transactions": ["restaurant_reservation"], "price": "$$$", "location": {"address1": "44 Henry St", "address2": "", "address3": "", "city": "Brooklyn", "zip_code": "11201", "country": "US", "state": "NY", "display_address": ["44 Henry St", "Brooklyn, NY 11201"]}, "phone": "+17188341776", "display_phone": "(718) 834-1776", "distance": 662.9127922813059}, {"id": "dumboluv-brooklyn-3", "name": "dumboLUV", "image_url": "https://s3-media2.fl.yelpcdn.com/bphoto/UblRlizLu2F3eExNuXwR-Q/o.jpg", "is_closed": false, "url": "https://www.yelp.com/biz/dumboluv-brooklyn-3?adjust_creative=pY8zJUWQtPjP9LVSrcR4eg&utm_campaign=yelp_api_v3&utm_medium=api_v3_business_search&utm_source=pY8zJUWQtPjP9LVSrcR4eg", "review_count": 6, "categories": [{"alias": "newamerican", "title": "American (New)"}, {"alias": "wine_bars", "title": "Wine Bars"}], "rating": 5.0, "coordinates": {"latitude": 40.7032593, "longitude": -73.9866501}, "transactions": [], "location": {"address1": "54 Jay St", "address2": null, "address3": "Olympia Wine Bar", "city": "Brooklyn", "zip_code": "11201", "country": "US", "state": "NY", "display_address": ["54 Jay St", "Olympia Wine Bar", "Brooklyn, NY 11201"]}, "phone": "+18044105393", "display_phone": "(804) 410-5393", "distance": 688.5877508995679}, {"id": "gotham-bar-and-grill-new-york", "name": "Gotham Bar and Grill", "image_url": "https://s3-media1.fl.yelpcdn.com/bphoto/Xx8oxiRukbuuwMQt6YrhHA/o.jpg", "is_closed": false, "url": "https://www.yelp.com/biz/gotham-bar-and-grill-new-york?adjust_creative=pY8zJUWQtPjP9LVSrcR4eg&utm_campaign=yelp_api_v3&utm_medium=api_v3_business_search&utm_source=pY8zJUWQtPjP9LVSrcR4eg", "review_count": 1401, "categories": [{"alias": "newamerican", "title": "American (New)"}, {"alias": "bars", "title": "Bars"}], "rating": 4.5, "coordinates": {"latitude": 40.734186, "longitude": -73.993696}, "transactions": ["restaurant_reservation"], "price": "$$$$", "location": {"address1": "12 E 12th St", "address2": "", "address3": "", "city": "New York", "zip_code": "10003", "country": "US", "state": "NY", "display_address": ["12 E 12th St", "New York, NY 10003"]}, "phone": "+12126204020", "display_phone": "(212) 620-4020", "distance": 3196.261207577424}, {"id": "the-counting-room-brooklyn", "name": "The Counting Room", "image_url": "https://s3-media3.fl.yelpcdn.com/bphoto/CqSFk7vqk87LwykQuGvewQ/o.jpg", "is_closed": false, "url": "https://www.yelp.com/biz/the-counting-room-brooklyn?adjust_creative=pY8zJUWQtPjP9LVSrcR4eg&utm_campaign=yelp_api_v3&utm_medium=api_v3_business_search&utm_source=pY8zJUWQtPjP9LVSrcR4eg", "review_count": 196, "categories": [{"alias": "newamerican", "title": "American (New)"}, {"alias": "bars", "title": "Bars"}], "rating": 4.0, "coordinates": {"latitude": 40.7210284353333, "longitude": -73.9567896387259}, "transactions": [], "price": "$$", "location": {"address1": "44 Berry St", "address2": "", "address3": "", "city": "Brooklyn", "zip_code": "11211", "country": "US", "state": "NY", "display_address": ["44 Berry St", "Brooklyn, NY 11211"]}, "phone": "+17185991860", "display_phone": "(718) 599-1860", "distance": 3604.7487248581333}, {"id": "schilling-new-york", "name": "Schilling", "image_url": "https://s3-media1.fl.yelpcdn.com/bphoto/4VZAQADQQebHoqQf5gkbJg/o.jpg", "is_closed": false, "url": "https://www.yelp.com/biz/schilling-new-york?adjust_creative=pY8zJUWQtPjP9LVSrcR4eg&utm_campaign=yelp_api_v3&utm_medium=api_v3_business_search&utm_source=pY8zJUWQtPjP9LVSrcR4eg", "review_count": 100, "categories": [{"alias": "austrian", "title": "Austrian"}, {"alias": "bars", "title": "Bars"}, {"alias": "newamerican", "title": "American (New)"}], "rating": 4.5, "coordinates": {"latitude": 40.70857, "longitude": -74.014}, "transactions": [], "price": "$$$", "location": {"address1": "109 Washington St", "address2": "", "address3": "", "city": "New York", "zip_code": "10006", "country": "US", "state": "NY", "display_address": ["109 Washington St", "New York, NY 10006"]}, "phone": "+12124061200", "display_phone": "(212) 406-1200", "distance": 1696.310119885476}, {"id": "sojourn-new-york", "name": "Sojourn", "image_url": "https://s3-media4.fl.yelpcdn.com/bphoto/a983VrHbLKkCI8R1ElLIkQ/o.jpg", "is_closed": false, "url": "https://www.yelp.com/biz/sojourn-new-york?adjust_creative=pY8zJUWQtPjP9LVSrcR4eg&utm_campaign=yelp_api_v3&utm_medium=api_v3_business_search&utm_source=pY8zJUWQtPjP9LVSrcR4eg", "review_count": 503, "categories": [{"alias": "newamerican", "title": "American (New)"}, {"alias": "tapasmallplates", "title": "Tapas/Small Plates"}, {"alias": "breakfast_brunch", "title": "Breakfast & Brunch"}], "rating": 4.0, "coordinates": {"latitude": 40.77343, "longitude": -73.95568}, "transactions": ["delivery", "pickup"], "price": "$$", "location": {"address1": "244 E 79th St", "address2": "", "address3": "", "city": "New York", "zip_code": "10075", "country": "US", "state": "NY", "display_address": ["244 E 79th St", "New York, NY 10075"]}, "phone": "+12125377745", "display_phone": "(212) 537-7745", "distance": 8231.08777040289}, {"id": "amused-new-york", "name": "Amused", "image_url": "https://s3-media2.fl.yelpcdn.com/bphoto/l8CwZ2TYHjK5vZlnu239Eg/o.jpg", "is_closed": false, "url": "https://www.yelp.com/biz/amused-new-york?adjust_creative=pY8zJUWQtPjP9LVSrcR4eg&utm_campaign=yelp_api_v3&utm_medium=api_v3_business_search&utm_source=pY8zJUWQtPjP9LVSrcR4eg", "review_count": 29, "categories": [{"alias": "newamerican", "title": "American (New)"}, {"alias": "sandwiches", "title": "Sandwiches"}, {"alias": "cocktailbars", "title": "Cocktail Bars"}], "rating": 4.0, "coordinates": {"latitude": 40.7850341796875, "longitude": -73.9754409790039}, "transactions": [], "price": "$$", "location": {"address1": "142 W 83rd St", "address2": "", "address3": "", "city": "New York", "zip_code": "10024", "country": "US", "state": "NY", "display_address": ["142 W 83rd St", "New York, NY 10024"]}, "phone": "+13472988200", "display_phone": "(347) 298-8200", "distance": 8993.496903855088}], "total": 8300, "region": {"center": {"longitude": -73.9942932129, "latitude": 40.7054448644}}}